[
  {"name": "Harvard University", "lat": 42.3770, "lng": -71.1167},
  {"name": "Massachusetts Institute of Technology", "lat": 42.3601, "lng": -71.0942},
  {"name": "Stanford University", "lat": 37.4275, "lng": -122.1697},
  {"name": "Yale University", "lat": 41.3163, "lng": -72.9223},
  {"name": "Princeton University", "lat": 40.3431, "lng": -74.6551},
  {"name": "Columbia University", "lat": 40.8075, "lng": -73.9626},
  {"name": "University of Chicago", "lat": 41.7886, "lng": -87.5987},
  {"name": "University of Pennsylvania", "lat": 39.9522, "lng": -75.1932},
  {"name": "California Institute of Technology", "lat": 34.1377, "lng": -118.1253},
  {"name": "Duke University", "lat": 36.0014, "lng": -78.9382},
  {"name": "Northwestern University", "lat": 42.0565, "lng": -87.6753},
  {"name": "Johns Hopkins University", "lat": 39.3299, "lng": -76.6205},
  {"name": "Dartmouth College", "lat": 43.7044, "lng": -72.2887},
  {"name": "Brown University", "lat": 41.8268, "lng": -71.4025},
  {"name": "Cornell University", "lat": 42.4534, "lng": -76.4735},
  {"name": "Rice University", "lat": 29.7174, "lng": -95.4018},
  {"name": "Vanderbilt University", "lat": 36.1447, "lng": -86.8027},
  {"name": "University of Notre Dame", "lat": 41.7052, "lng": -86.2352},
  {"name": "Washington University in St. Louis", "lat": 38.6488, "lng": -90.3108},
  {"name": "Georgetown University", "lat": 38.9076, "lng": -77.0723},
  {"name": "Emory University", "lat": 33.7925, "lng": -84.3233},
  {"name": "University of California, Berkeley", "lat": 37.8719, "lng": -122.2585},
  {"name": "University of California, Los Angeles", "lat": 34.0689, "lng": -118.4452},
  {"name": "University of Southern California", "lat": 34.0224, "lng": -118.2851},
  {"name": "Carnegie Mellon University", "lat": 40.4433, "lng": -79.9436},
  {"name": "University of Virginia", "lat": 38.0336, "lng": -78.5080},
  {"name": "University of Michigan", "lat": 42.2780, "lng": -83.7382},
  {"name": "New York University", "lat": 40.7295, "lng": -73.9965},
  {"name": "University of North Carolina at Chapel Hill", "lat": 35.9049, "lng": -79.0469},
  {"name": "Boston University", "lat": 42.3505, "lng": -71.1054},
  {"name": "University of Florida", "lat": 29.6436, "lng": -82.3549},
  {"name": "University of Texas at Austin", "lat": 30.2849, "lng": -97.7341},
  {"name": "Georgia Institute of Technology", "lat": 33.7756, "lng": -84.3963},
  {"name": "University of Wisconsin-Madison", "lat": 43.0766, "lng": -89.4125},
  {"name": "University of Illinois Urbana-Champaign", "lat": 40.1020, "lng": -88.2272},
  {"name": "Ohio State University", "lat": 40.0067, "lng": -83.0305},
  {"name": "Penn State University", "lat": 40.7982, "lng": -77.8599},
  {"name": "University of Washington", "lat": 47.6553, "lng": -122.3035},
  {"name": "Boston College", "lat": 42.3355, "lng": -71.1685},
  {"name": "University of Rochester", "lat": 43.1289, "lng": -77.6290},
  {"name": "Case Western Reserve University", "lat": 41.5045, "lng": -81.6088},
  {"name": "Northeastern University", "lat": 42.3398, "lng": -71.0892},
  {"name": "Tulane University", "lat": 29.9394, "lng": -90.1204},
  {"name": "University of Miami", "lat": 25.7175, "lng": -80.2794},
  {"name": "Wake Forest University", "lat": 36.1334, "lng": -80.2772},
  {"name": "University of Colorado Boulder", "lat": 40.0076, "lng": -105.2659},
  {"name": "University of California, San Diego", "lat": 32.8801, "lng": -117.2340},
  {"name": "University of California, Davis", "lat": 38.5382, "lng": -121.7617},
  {"name": "University of California, Santa Barbara", "lat": 34.4140, "lng": -119.8489},
  {"name": "University of California, Irvine", "lat": 33.6405, "lng": -117.8443},
  {"name": "Purdue University", "lat": 40.4237, "lng": -86.9212},
  {"name": "University of Minnesota", "lat": 44.9740, "lng": -93.2277},
  {"name": "University of Maryland", "lat": 38.9869, "lng": -76.9426},
  {"name": "University of Pittsburgh", "lat": 40.4444, "lng": -79.9608},
  {"name": "Indiana University Bloomington", "lat": 39.1682, "lng": -86.5186},
  {"name": "Michigan State University", "lat": 42.7018, "lng": -84.4822},
  {"name": "University of Arizona", "lat": 32.2319, "lng": -110.9501},
  {"name": "Arizona State University", "lat": 33.4242, "lng": -111.9281},
  {"name": "University of Iowa", "lat": 41.6611, "lng": -91.5302},
  {"name": "University of Oregon", "lat": 44.0448, "lng": -123.0726},
  {"name": "Syracuse University", "lat": 43.0392, "lng": -76.1351},
  {"name": "Rutgers University", "lat": 40.5008, "lng": -74.4474},
  {"name": "Texas A&M University", "lat": 30.6187, "lng": -96.3365},
  {"name": "University of Georgia", "lat": 33.9480, "lng": -83.3773},
  {"name": "University of Connecticut", "lat": 41.8084, "lng": -72.2495},
  {"name": "Virginia Tech", "lat": 37.2284, "lng": -80.4234},
  {"name": "Florida State University", "lat": 30.4419, "lng": -84.2985},
  {"name": "University of Tennessee", "lat": 35.9544, "lng": -83.9295},
  {"name": "University of South Carolina", "lat": 33.9940, "lng": -81.0277},
  {"name": "Clemson University", "lat": 34.6834, "lng": -82.8374},
  {"name": "University of Kentucky", "lat": 38.0317, "lng": -84.5040},
  {"name": "University of Kansas", "lat": 38.9543, "lng": -95.2558},
  {"name": "University of Oklahoma", "lat": 35.2058, "lng": -97.4457},
  {"name": "University of Nebraska-Lincoln", "lat": 40.8202, "lng": -96.7005},
  {"name": "Iowa State University", "lat": 42.0266, "lng": -93.6465},
  {"name": "University of Missouri", "lat": 38.9404, "lng": -92.3277},
  {"name": "Oregon State University", "lat": 44.5646, "lng": -123.2620},
  {"name": "Washington State University", "lat": 46.7298, "lng": -117.1817},
  {"name": "Colorado State University", "lat": 40.5734, "lng": -105.0865},
  {"name": "University of Utah", "lat": 40.7649, "lng": -111.8421},
  {"name": "Brigham Young University", "lat": 40.2519, "lng": -111.6493},
  {"name": "University of Nevada, Las Vegas", "lat": 36.1083, "lng": -115.1391},
  {"name": "University of New Mexico", "lat": 35.0844, "lng": -106.6189},
  {"name": "University of Alabama", "lat": 33.2140, "lng": -87.5391},
  {"name": "Auburn University", "lat": 32.6034, "lng": -85.4808},
  {"name": "University of Arkansas", "lat": 36.0686, "lng": -94.1749},
  {"name": "Louisiana State University", "lat": 30.4133, "lng": -91.1800},
  {"name": "University of Mississippi", "lat": 34.3649, "lng": -89.5386},
  {"name": "Mississippi State University", "lat": 33.4504, "lng": -88.7895},
  {"name": "University of Louisville", "lat": 38.2116, "lng": -85.7588},
  {"name": "West Virginia University", "lat": 39.6350, "lng": -79.9545},
  {"name": "University of Cincinnati", "lat": 39.1329, "lng": -84.5150},
  {"name": "Temple University", "lat": 39.9812, "lng": -75.1554},
  {"name": "Drexel University", "lat": 39.9566, "lng": -75.1899},
  {"name": "George Washington University", "lat": 38.8997, "lng": -77.0486},
  {"name": "American University", "lat": 38.9365, "lng": -77.0875},
  {"name": "Howard University", "lat": 38.9220, "lng": -77.0195},
  {"name": "Fordham University", "lat": 40.8614, "lng": -73.8855},
  {"name": "Villanova University", "lat": 40.0375, "lng": -75.3459},
  {"name": "Marquette University", "lat": 43.0386, "lng": -87.9298},
  {"name": "Loyola University Chicago", "lat": 41.9998, "lng": -87.6584},
  {"name": "DePaul University", "lat": 41.9253, "lng": -87.6548},
  {"name": "University of San Francisco", "lat": 37.7765, "lng": -122.4506},
  {"name": "Santa Clara University", "lat": 37.3496, "lng": -121.9390},
  {"name": "Pepperdine University", "lat": 34.0397, "lng": -118.7095},
  {"name": "University of San Diego", "lat": 32.7714, "lng": -117.1887},
  {"name": "Gonzaga University", "lat": 47.6667, "lng": -117.4022},
  {"name": "University of Portland", "lat": 45.5715, "lng": -122.7274},
  {"name": "Seattle University", "lat": 47.6103, "lng": -122.3190},
  {"name": "University of Denver", "lat": 39.6780, "lng": -104.9626},
  {"name": "University of Tulsa", "lat": 36.1505, "lng": -95.9460},
  {"name": "Southern Methodist University", "lat": 32.8412, "lng": -96.7844},
  {"name": "Texas Christian University", "lat": 32.7096, "lng": -97.3635},
  {"name": "Baylor University", "lat": 31.5453, "lng": -97.1170},
  {"name": "University of Houston", "lat": 29.7199, "lng": -95.3422},
  {"name": "Saint Louis University", "lat": 38.6370, "lng": -90.2340},
  {"name": "Creighton University", "lat": 41.2663, "lng": -95.9413},
  {"name": "University of Dayton", "lat": 39.7400, "lng": -84.1792},
  {"name": "Xavier University", "lat": 39.1499, "lng": -84.4738},
  {"name": "Miami University", "lat": 39.5086, "lng": -84.7347},
  {"name": "Bowling Green State University", "lat": 41.3780, "lng": -83.6497},
  {"name": "Kent State University", "lat": 41.1499, "lng": -81.3410},
  {"name": "University of Akron", "lat": 41.0751, "lng": -81.5111},
  {"name": "Cleveland State University", "lat": 41.5025, "lng": -81.6747},
  {"name": "University of Toledo", "lat": 41.6576, "lng": -83.6158},
  {"name": "Wright State University", "lat": 39.7816, "lng": -84.0625},
  {"name": "Ball State University", "lat": 40.2073, "lng": -85.4097},
  {"name": "Indiana State University", "lat": 39.4683, "lng": -87.4108},
  {"name": "Northern Illinois University", "lat": 41.9337, "lng": -88.7732},
  {"name": "Southern Illinois University", "lat": 37.7109, "lng": -89.2175},
  {"name": "Western Michigan University", "lat": 42.2828, "lng": -85.6144},
  {"name": "Central Michigan University", "lat": 43.5898, "lng": -84.7678},
  {"name": "Eastern Michigan University", "lat": 42.2519, "lng": -83.6237},
  {"name": "Grand Valley State University", "lat": 42.9646, "lng": -85.8889},
  {"name": "Wayne State University", "lat": 42.3573, "lng": -83.0693},
  {"name": "University of Wisconsin-Milwaukee", "lat": 43.0766, "lng": -87.8829},
  {"name": "University of Vermont", "lat": 44.4779, "lng": -73.1965},
  {"name": "University of New Hampshire", "lat": 43.1348, "lng": -70.9358},
  {"name": "University of Maine", "lat": 44.9012, "lng": -68.6719},
  {"name": "University of Rhode Island", "lat": 41.4804, "lng": -71.5263},
  {"name": "University of Delaware", "lat": 39.6780, "lng": -75.7506},
  {"name": "College of William & Mary", "lat": 37.2707, "lng": -76.7075},
  {"name": "James Madison University", "lat": 38.4346, "lng": -78.8690},
  {"name": "George Mason University", "lat": 38.8318, "lng": -77.3089},
  {"name": "Old Dominion University", "lat": 36.8851, "lng": -76.3055},
  {"name": "Virginia Commonwealth University", "lat": 37.5488, "lng": -77.4534},
  {"name": "North Carolina State University", "lat": 35.7872, "lng": -78.6705},
  {"name": "East Carolina University", "lat": 35.6054, "lng": -77.3663},
  {"name": "Appalachian State University", "lat": 36.2137, "lng": -81.6747},
  {"name": "UNC Charlotte", "lat": 35.3074, "lng": -80.7323},
  {"name": "UNC Greensboro", "lat": 36.0687, "lng": -79.8117},
  {"name": "Elon University", "lat": 36.1032, "lng": -79.5018},
  {"name": "Davidson College", "lat": 35.5004, "lng": -80.8432},
  {"name": "High Point University", "lat": 35.9699, "lng": -79.9948},
  {"name": "University of South Florida", "lat": 28.0587, "lng": -82.4139},
  {"name": "University of Central Florida", "lat": 28.6024, "lng": -81.2001},
  {"name": "Florida Atlantic University", "lat": 26.3726, "lng": -80.1011},
  {"name": "Florida International University", "lat": 25.7564, "lng": -80.3743},
  {"name": "Georgia State University", "lat": 33.7529, "lng": -84.3853},
  {"name": "Kennesaw State University", "lat": 34.0363, "lng": -84.5824},
  {"name": "University of North Texas", "lat": 33.2097, "lng": -97.1491},
  {"name": "University of Texas at San Antonio", "lat": 29.5830, "lng": -98.6190},
  {"name": "University of Texas at Dallas", "lat": 32.9857, "lng": -96.7502},
  {"name": "University of Texas at Arlington", "lat": 32.7299, "lng": -97.1137},
  {"name": "Texas State University", "lat": 29.8880, "lng": -97.9384},
  {"name": "San Diego State University", "lat": 32.7757, "lng": -117.0719},
  {"name": "San Jose State University", "lat": 37.3352, "lng": -121.8811},
  {"name": "California State University, Fullerton", "lat": 33.8829, "lng": -117.8869},
  {"name": "California State University, Long Beach", "lat": 33.7838, "lng": -118.1141},
  {"name": "California State University, Northridge", "lat": 34.2407, "lng": -118.5285},
  {"name": "Sacramento State University", "lat": 38.5602, "lng": -121.4241},
  {"name": "Fresno State University", "lat": 36.8127, "lng": -119.7480},
  {"name": "Portland State University", "lat": 45.5117, "lng": -122.6840},
  {"name": "Boise State University", "lat": 43.6026, "lng": -116.1986},
  {"name": "University of Nevada, Reno", "lat": 39.5459, "lng": -119.8175},
  {"name": "University of Hawaii at Manoa", "lat": 21.2969, "lng": -157.8171},
  {"name": "University of Alaska Fairbanks", "lat": 64.8588, "lng": -147.8539},
  {"name": "Williams College", "lat": 42.7131, "lng": -73.2037},
  {"name": "Amherst College", "lat": 42.3709, "lng": -72.5170},
  {"name": "Swarthmore College", "lat": 39.9050, "lng": -75.3540},
  {"name": "Wellesley College", "lat": 42.2936, "lng": -71.3057},
  {"name": "Bowdoin College", "lat": 43.9056, "lng": -69.9629},
  {"name": "Middlebury College", "lat": 44.0086, "lng": -73.1764},
  {"name": "Pomona College", "lat": 34.0977, "lng": -117.7137},
  {"name": "Claremont McKenna College", "lat": 34.1011, "lng": -117.7089},
  {"name": "Harvey Mudd College", "lat": 34.1061, "lng": -117.7105},
  {"name": "Scripps College", "lat": 34.1035, "lng": -117.7089},
  {"name": "Pitzer College", "lat": 34.1038, "lng": -117.7042},
  {"name": "Carleton College", "lat": 44.4605, "lng": -93.1530},
  {"name": "Macalester College", "lat": 44.9380, "lng": -93.1691},
  {"name": "Grinnell College", "lat": 41.7487, "lng": -92.7232},
  {"name": "Oberlin College", "lat": 41.2925, "lng": -82.2176},
  {"name": "Kenyon College", "lat": 40.3760, "lng": -82.3980},
  {"name": "Denison University", "lat": 40.0735, "lng": -82.5221},
  {"name": "College of Wooster", "lat": 40.8080, "lng": -81.9347},
  {"name": "Hamilton College", "lat": 43.0520, "lng": -75.4058},
  {"name": "Colgate University", "lat": 42.8194, "lng": -75.5399},
  {"name": "Union College", "lat": 42.8178, "lng": -73.9307},
  {"name": "Skidmore College", "lat": 43.0962, "lng": -73.7856},
  {"name": "Vassar College", "lat": 41.6867, "lng": -73.8948},
  {"name": "Bates College", "lat": 44.1051, "lng": -70.2044},
  {"name": "Colby College", "lat": 44.5639, "lng": -69.6593},
  {"name": "Connecticut College", "lat": 41.3787, "lng": -72.1046},
  {"name": "Trinity College", "lat": 41.7477, "lng": -72.6908},
  {"name": "Wesleyan University", "lat": 41.5565, "lng": -72.6559},
  {"name": "Mount Holyoke College", "lat": 42.2550, "lng": -72.5747},
  {"name": "Smith College", "lat": 42.3183, "lng": -72.6381},
  {"name": "Bryn Mawr College", "lat": 40.0283, "lng": -75.3148},
  {"name": "Haverford College", "lat": 40.0110, "lng": -75.3051},
  {"name": "Lafayette College", "lat": 40.6978, "lng": -75.2098},
  {"name": "Lehigh University", "lat": 40.6065, "lng": -75.3783},
  {"name": "Bucknell University", "lat": 40.9557, "lng": -76.8825},
  {"name": "Dickinson College", "lat": 40.2026, "lng": -77.1958},
  {"name": "Gettysburg College", "lat": 39.8392, "lng": -77.2311},
  {"name": "Franklin & Marshall College", "lat": 40.0447, "lng": -76.3080},
  {"name": "Muhlenberg College", "lat": 40.5992, "lng": -75.5225},
  {"name": "Ursinus College", "lat": 40.1850, "lng": -75.4520},
  {"name": "Reed College", "lat": 45.4795, "lng": -122.6355},
  {"name": "Lewis & Clark College", "lat": 45.4505, "lng": -122.6715},
  {"name": "Whitman College", "lat": 46.0721, "lng": -118.3290},
  {"name": "University of Puget Sound", "lat": 47.2638, "lng": -122.4815},
  {"name": "Colorado College", "lat": 38.8468, "lng": -104.8257},
  {"name": "Rhodes College", "lat": 35.1521, "lng": -89.9873},
  {"name": "Sewanee: The University of the South", "lat": 35.2027, "lng": -85.9219},
  {"name": "Centre College", "lat": 37.6434, "lng": -84.7694},
  {"name": "Furman University", "lat": 34.9255, "lng": -82.4395},
  {"name": "Rollins College", "lat": 28.5938, "lng": -81.3492},
  {"name": "Agnes Scott College", "lat": 33.7652, "lng": -84.2879},
  {"name": "Spelman College", "lat": 33.7461, "lng": -84.4125},
  {"name": "Morehouse College", "lat": 33.7477, "lng": -84.4143},
  {"name": "Clark Atlanta University", "lat": 33.7534, "lng": -84.4117}
]
